,City,Population,Latitude,Longitude,Country
0,Ny-Ålesund,40.0,78.9333333,11.95,Svalbard and Jan Mayen
1,Longyearbyen,1232.0,78.2166667,15.633333300000002,Svalbard and Jan Mayen
2,Siorapaluk,75.0,77.7952778,-70.75583329999999,Greenland
3,Qeqertat,18.0,77.50972220000001,-66.6477778,Greenland
4,Dikson,1113.0,73.50694399999999,80.546389,Russian Federation
5,Khatanga,3205.0,71.966667,102.5,Russian Federation
6,Barrow,4336.0,71.2905556,-156.7886111,United States
7,Mehamn,733.0,71.033333,27.85,Norway
8,Havøysund,1149.0,71.000556,24.696111,Norway
9,Clyde River,1017.0,70.45,-68.56666700000001,Canada
10,Tuktoyaktuk,978.0,69.45,-133.066667,Canada
11,Kiruna,17806.0,67.85,20.216667,Sweden
12,Kemijärvi,9341.0,66.666667,27.416667,Finland
13,Rovaniemi,34781.0,66.5,25.716667,Finland
14,Raufarhöfn,226.0,66.45,-15.95,Iceland
15,Kópasker,144.0,66.3,-16.45,Iceland
16,Boden,18225.0,65.833333,21.7,Sweden
17,College,11413.0,64.8569444,-147.80277780000003,United States
18,Trøllanes,26.0,62.3666667,-6.7833333,Faroe Islands
19,Hattarvík,19.0,62.3333333,-6.25,Faroe Islands
20,Brae,622.0,60.38333299999999,-1.35,United Kingdom
21,Lerwick,6594.0,60.15,-1.15,United Kingdom
22,Loksa,3463.0,59.5763889,25.7213889,Estonia
23,Võsu,481.0,59.5725,25.9752778,Estonia
24,Rujiena,3638.0,57.9,25.3166667,Latvia
25,Mazsalaca,1701.0,57.8666667,25.05,Latvia
26,Skagen,9747.0,57.726972,10.589686,Denmark
27,Hirtshals,6653.0,57.588135,9.951498,Denmark
28,Zagare,2201.0,56.3591667,23.25,Lithuania
29,Naujoji Akmene,11923.0,56.3166667,22.9,Lithuania
30,Braslav,12378.0,55.6338889,27.0538889,Belarus
31,Disna,2738.0,55.5666667,28.2166667,Belarus
32,Carndonagh,1581.0,55.25,-7.2666667,Ireland
33,Moville,1402.0,55.1833333,-7.05,Ireland
34,Mamlyutka,9328.0,54.9375,68.53944399999999,Kazakhstan
35,Bulaevo,9886.0,54.905556,70.443889,Kazakhstan
36,Westerland,8927.0,54.9,8.3,Germany
37,Harrislee,11600.0,54.8,9.383333,Germany
38,Wladyslawowo,14889.0,54.791759,18.403942,Poland
39,Puck,11415.0,54.71854200000001,18.41085,Poland
40,Delfzijl,28473.0,53.332639,6.924231,Netherlands
41,Winsum,14355.0,53.32724,6.530143,Netherlands
42,Tahe,60874.0,52.333333,124.733333,China
43,Semenivka,9320.0,52.178273,32.581827000000004,Ukraine
44,Dobryanka,3250.0,52.063136,31.185669,Ukraine
45,Essen,16754.0,51.466667,4.466667,Belgium
46,Baarle-Hertog,2305.0,51.45,4.933333,Belgium
47,Dunkirk,71740.0,51.05,2.366667,France
48,Saint-Pol-sur-Mer,23205.0,51.03116,2.339835,France
49,Sluknov,5630.0,51.004656,14.453760999999998,Czechia
50,Jirikov,3901.0,50.993215,14.572155,Czechia
51,Genhe,73631.0,50.783333,121.516667,China
52,Sühbaatar,24238.0,50.2313889,106.2077778,Mongolia
53,Beiler,87.0,50.165555600000005,6.088888900000001,Luxembourg
54,Huldange,376.0,50.1647222,6.015,Luxembourg
55,Ulaangom,28091.0,49.966666700000005,92.0333333,Mongolia
56,Cadca,27281.0,49.4333333,18.7833333,Slovakia
57,Námestovo,8135.0,49.4,19.5,Slovakia
58,Heidenreichstein,4472.0,48.866667,15.116667,Austria
59,Schrems,5811.0,48.783333,15.066667,Austria
60,Gönc,2217.0,48.466667,21.283333,Hungary
61,Záhony,4807.0,48.409062,22.176139000000003,Hungary
62,Ocnita,10762.0,48.385278,27.439167,"Moldova, Republic of"
63,Briceni,10762.0,48.357222,27.703611,"Moldova, Republic of"
64,Paltinis,3302.0,48.216667,26.65,Romania
65,Darabani,11890.0,48.183333000000005,26.583333000000003,Romania
66,Schaffhausen,34445.0,47.697316,8.634929,Switzerland
67,Kreuzlingen,17233.0,47.648212,9.180338,Switzerland
68,Schellenberg,1004.0,47.2333333,9.5333333,Liechtenstein
69,Ruggell,1862.0,47.2333333,9.516666699999998,Liechtenstein
70,Miquelon,1141.0,47.0975,-56.3813889,Saint Pierre and Miquelon
71,Brunico,13982.0,46.8,11.933333,Italy
72,Saint-Pierre,6200.0,46.7666667,-56.1833333,Saint Pierre and Miquelon
73,Bressanone,18599.0,46.716667,11.65,Italy
74,Gornja Radgona,3194.0,46.6733333,15.9922222,Slovenia
75,Murska Sobota,12412.0,46.6625,16.1663889,Slovenia
76,Cakovec,15867.0,46.38444439999999,16.4338889,Croatia
77,Varazdin,41808.0,46.3044444,16.3377778,Croatia
78,Horgos,6123.0,46.155556,19.9725,Serbia
79,Palic,7822.0,46.108889000000005,19.767222,Serbia
80,Wakkanai,41556.0,45.409444,141.673889,Japan
81,Makubetsu,25935.0,45.371389,141.821111,Japan
82,Bosanska Kostajnica,4739.0,45.2197222,16.5358333,Bosnia and Herzegovina
83,Velika Kladusa,19330.0,45.1894444,15.811666699999998,Bosnia and Herzegovina
84,Bregovo,2629.0,44.1516667,22.6425,Bulgaria
85,Silistra,38166.0,44.1166667,27.2666667,Bulgaria
86,Serravalle,9258.0,43.95,12.5,San Marino
87,Acquaviva,1530.0,43.95,12.4166667,San Marino
88,Fontvieille,4307.0,43.7333333,7.4166667,Monaco
89,Cervo,4848.0,43.670188,-7.410133999999999,Spain
90,Foz,9170.0,43.569197,-7.254405,Spain
91,Pljevlja,26266.0,43.352222,19.354167,Montenegro
92,Gagra,8266.0,43.3222222,40.2436111,Georgia
93,Pitsunda,8402.0,43.15694439999999,40.35,Georgia
94,Karauzyak,27081.0,43.0275,60.0125,Uzbekistan
95,Kant,20182.0,42.8875,74.8472222,Kyrgyzstan
96,Tokmak,63047.0,42.8413889,75.2883333,Kyrgyzstan
97,Kegayli,14147.0,42.7766667,59.6077778,Uzbekistan
98,Niksic,65896.0,42.775,18.958333,Montenegro
99,Canillo,3292.0,42.5666667,1.6,Andorra
100,Ordino,2553.0,42.55,1.5333333,Andorra
101,Bajram Curri,7967.0,42.3572222,20.0730556,Albania
102,Fierzë,742.0,42.2647222,20.0269444,Albania
103,Izvor,1014.0,42.2038889,21.5783333,North Macedonia
104,Kriva Palanka,20820.0,42.2019444,22.3319444,North Macedonia
105,Boldumsaz,21160.0,42.1333333,59.6666667,Turkmenistan
106,Akdepe,14177.0,42.05,59.4,Turkmenistan
107,Sinop,34827.0,42.026829,35.162525,Turkey
108,Mozelos,7229.0,41.866667,-8.4,Portugal
109,Vila Praia de Âncora,4987.0,41.810976,-8.852547999999999,Portugal
110,Qabaqçöl,1293.0,41.72,46.264722,Azerbaijan
111,Orménion,750.0,41.7191667,26.214444399999994,Greece
112,Díkaia,737.0,41.7041667,26.2933333,Greece
113,Edirne,126535.0,41.675745,26.558665,Turkey
114,Sollar,205.0,41.639727,48.664408,Azerbaijan
115,Bagratashen,3024.0,41.2458333,44.8211111,Armenia
116,Berdavan,3150.0,41.2027778,45.0033333,Armenia
117,Naugarzan,877.0,40.9333333,70.55,Tajikistan
118,Asht,11705.0,40.6666667,70.33333329999999,Tajikistan
119,Parsabad,101715.0,39.6482,47.9174,"Iran, Islamic Republic of"
120,Maku,41517.0,39.2944,44.4809,"Iran, Islamic Republic of"
121,Seoul,10323448.0,37.5985,126.9783,"Korea, Republic of"
122,Qarqin,15023.0,37.404464,66.074375,Afghanistan
123,Cah Ab,23424.0,37.397734,69.814644,Afghanistan
124,Manzil Jamil,21542.0,37.23618,9.91448,Tunisia
125,Rafraf,9255.0,37.19043,10.183648,Tunisia
126,Tigzirt,19748.0,36.89388889999999,4.1225,Algeria
127,Dahuk,129127.0,36.8658333,42.9997222,Iraq
128,Timizart,41398.0,36.8,4.2666667,Algeria
129,Manbij,105420.0,36.5266667,37.95638889999999,Syrian Arab Republic
130,Tall Kayf,23613.0,36.4894444,43.1191667,Iraq
131,Hunza,15606.0,36.318987,74.664273,Pakistan
132,Aleppo,2139878.0,36.2027778,37.1586111,Syrian Arab Republic
133,Gibraltar,26544.0,36.1333333,-5.35,Gibraltar
134,Gharb,971.0,36.06,14.208889,Malta
135,Ghasri,364.0,36.057778000000006,14.226389,Malta
136,Gilgit,9891.0,35.918685,74.312451,Pakistan
137,Tangier,825316.0,35.780576,-5.813646,Morocco
138,Martil,29805.0,35.616617,-5.275219,Morocco
139,Dipkarpaz,5215.0,35.6,34.375,Cyprus
140,Ziyamet,1593.0,35.470833299999995,34.1416667,Cyprus
141,Kargil,13843.0,34.566666999999995,76.1,India
142,Bandipur,31980.0,34.416667,74.65,India
143,Jubayl,20786.0,34.1166667,35.65,Lebanon
144,Juniyah,96322.0,33.9808333,35.6177778,Lebanon
145,Qiryat Shemona,22738.0,33.207334,35.572118,Israel
146,Shelomi,5784.0,33.074719,35.146075,Israel
147,Zaltan,16291.0,32.95,11.866666699999998,Libya
148,Zuwarah,180310.0,32.9344444,12.079166699999998,Libya
149,Algodones,4874.0,32.7,-114.766667,Mexico
150,Kafr Sawm,7800.0,32.683333000000005,35.8,Jordan
151,Malka,7477.0,32.673806,35.750129,Jordan
152,Cuervos,8481.0,32.669722,-114.804444,Mexico
153,Saint George,1802.0,32.381666700000004,-64.6780556,Bermuda
154,Hamilton,902.0,32.2941667,-64.7838889,Bermuda
155,Turayf,32654.0,31.672516,38.663735,Saudi Arabia
156,Damietta,76906.0,31.4194444,31.815,Egypt
157,Rosetta,64489.0,31.4044444,30.4163889,Egypt
158,Sakakah,93282.0,29.969742,40.206414,Saudi Arabia
159,Doha,37804.0,29.367778,47.81,Kuwait
160,Kayfan,27202.0,29.341389000000003,47.963333,Kuwait
161,Jumla,9073.0,29.25,82.25,Nepal
162,Mahendranagar,88386.0,28.9166667,80.33333329999999,Nepal
163,Gasa,1612.0,27.9166667,89.6833333,Bhutan
164,Lhuntshi,1935.0,27.65,91.15,Bhutan
165,High Rock,3744.0,26.6208333,-78.2833333,Bahamas
166,Sweeting Cay,483.0,26.6,-77.8833333,Bahamas
167,Panchagarh,48536.0,26.3333333,88.5666667,Bangladesh
168,Manama,147097.0,26.2361111,50.5830556,Bahrain
169,Sitrah,37690.0,26.1547222,50.6205556,Bahrain
170,Thakurgaon,71104.0,26.0333333,88.4666667,Bangladesh
171,Khor,18923.0,25.683889,51.505833,Qatar
172,Myitkyina,90905.0,25.3833333,97.4,Myanmar
173,Sharjah,543942.0,25.35731,55.403304000000006,United Arab Emirates
174,Doha,344939.0,25.286667,51.533333,Qatar
175,Dubai,1137376.0,25.258172,55.304717,United Arab Emirates
176,Tanshui,133001.0,25.1777778,121.4433333,"Taiwan, Province of China"
177,Keelung,397516.0,25.1313889,121.7375,"Taiwan, Province of China"
178,Banmo,47920.0,24.2666667,97.2333333,Myanmar
179,Muscat,67445.0,23.6133333,58.5933333,Oman
180,Ruwi,85601.0,23.5905556,58.55,Oman
181,Santa Cruz del Norte,18403.0,23.1538889,-81.92361109999999,Cuba
182,Varadero,17178.0,23.1536111,-81.25138890000001,Cuba
183,Hà Giang,32690.0,22.833333,104.983333,Viet Nam
184,Cao Bang,41117.0,22.666667,106.25,Viet Nam
185,Taoudenni,3019.0,22.6666667,-3.9833333,Mali
186,Cockburn Harbour,1744.0,21.4833333,-71.5333333,Turks and Caicos Islands
187,Cockburn Town,5525.0,21.4666667,-71.1333333,Turks and Caicos Islands
188,Nam Tha,3227.0,20.949722,101.401111,Lao People's Democratic Republic
189,Nouâdhibou,80181.0,20.9,-17.0666667,Mauritania
190,Atâr,30501.0,20.5166667,-13.05,Mauritania
191,Basco,7297.0,20.448649,121.970172,Philippines
192,Mae Sai,27520.0,20.433528,99.876167,Thailand
193,Xam Nua,38976.0,20.419722,104.043889,Lao People's Democratic Republic
194,Chiang Khong,14505.0,20.261248,100.404613,Thailand
195,Tessalit,2787.0,20.2013889,1.0088889,Mali
196,Port-de-Paix,34659.0,19.95,-72.83333329999999,Haiti
197,Monte Cristi,17001.0,19.8666667,-71.65,Dominican Republic
198,Puerto Plata,119908.0,19.8,-70.6833333,Dominican Republic
199,Cap-Haïtien,134823.0,19.757777800000003,-72.2041667,Haiti
200,West Bay,10768.0,19.3666667,-81.41666670000001,Cayman Islands
201,George Town,27340.0,19.3,-81.3833333,Cayman Islands
202,Sawakin,28570.0,19.1038889,37.33,Sudan
203,Sinkat,12547.0,18.8372222,36.8327778,Sudan
204,Arlit,83400.0,18.7325,7.3680556,Niger
205,Bilma,2292.0,18.6866667,12.919166699999998,Niger
206,Namuac,3037.0,18.610905,121.165699,Philippines
207,Falmouth,7780.0,18.5,-77.65,Jamaica
208,Discovery Bay,2536.0,18.4666667,-77.4,Jamaica
209,Spanish Town,355.0,18.45,-64.4333333,"Virgin Islands, British"
210,Little Harbour,84.0,18.4333333,-64.7166667,"Virgin Islands, British"
211,Corozal,8724.0,18.3833333,-88.3833333,Belize
212,The Valley,1379.0,18.2166667,-63.05,Anguilla
213,Marigot,3368.0,18.0666667,-63.0833333,Guadeloupe
214,Orange Walk,15298.0,18.0666667,-88.55,Belize
215,Faya,13400.0,17.9166667,19.1166667,Chad
216,Codrington,682.0,17.6333333,-61.8333333,Antigua and Barbuda
217,Windward Side,442.0,17.6333333,-63.2333333,Netherlands Antilles
218,The Bottom,488.0,17.6333333,-63.25,Netherlands Antilles
219,Dieppe Bay,592.0,17.4166667,-62.8,Saint Kitts and Nevis
220,Sadlers,986.0,17.4,-62.7833333,Saint Kitts and Nevis
221,Ponta do Sol,4001.0,17.2,-25.1,Cabo Verde
222,Pombas,1790.0,17.15,-25.0166667,Cabo Verde
223,Carlisle,831.0,17.1333333,-61.8,Antigua and Barbuda
224,Melchor de Mencos,11220.0,17.068610999999997,-89.152222,Guatemala
225,San José,1176.0,16.983333,-89.9,Guatemala
226,Podor,6984.0,16.6666667,-14.95,Senegal
227,Ndioum,5304.0,16.5166667,-14.65,Senegal
228,Anse-Bertrand,5146.0,16.466666699999998,-61.5,Guadeloupe
229,Savannah Bight,1031.0,16.45,-85.85,Honduras
230,Guanaja,1942.0,16.4,-85.9,Honduras
231,Portsmouth,3608.0,15.5833333,-61.466666700000005,Dominica
232,Wesley,1997.0,15.5666667,-61.3166667,Dominica
233,Ginda,11560.0,15.4491667,39.0886111,Eritrea
234,Asmara,563948.0,15.3333333,38.9333333,Eritrea
235,Sayyan,69402.0,15.1663889,44.328055600000006,Yemen
236,Bajil,48217.0,15.0666667,43.2833333,Yemen
237,Basse-Pointe,4037.0,14.866666699999998,-61.1166667,Martinique
238,Le Lorrain,8342.0,14.8333333,-61.0666667,Martinique
239,Waspán,7287.0,14.733333300000002,-83.9666667,Nicaragua
240,Biltine,11000.0,14.5333333,20.9166667,Chad
241,Gorom-Gorom,6743.0,14.4438889,-0.2361111,Burkina Faso
242,Metapán,19143.0,14.3333333,-89.45,El Salvador
243,Himora,19708.0,14.290593,36.608076,Ethiopia
244,San Francisco Morazán,506.0,14.1833333,-89.05,El Salvador
245,Adwa,43582.0,14.163471,38.899237,Ethiopia
246,Djibo,22821.0,14.102222199999998,-1.6305556,Burkina Faso
247,Cap Estate,699.0,14.0833333,-60.95,Saint Lucia
248,Gros Islet,2448.0,14.0666667,-60.95,Saint Lucia
249,Puerto Cabezas,31050.0,14.0333333,-83.3833333,Nicaragua
250,Kuntaur,11399.0,13.65,-14.866666699999998,Gambia
251,Sisophon,23215.0,13.5833333,102.9833333,Cambodia
252,Farafenni,36831.0,13.5666667,-15.6,Gambia
253,Lumphat,19205.0,13.5,106.98333329999998,Cambodia
254,Crab Hill,727.0,13.3166667,-59.6333333,Barbados
255,Chateaubelair,735.0,13.2833333,-61.25,Saint Vincent and the Grenadines
256,Georgetown,1708.0,13.266666699999998,-61.1166667,Saint Vincent and the Grenadines
257,Greenland,623.0,13.25,-59.5666667,Barbados
258,Sokoto,563899.0,13.048025,5.214285,Nigeria
259,Katsina,432179.0,12.989428,7.600627999999999,Nigeria
260,San Andrés,58258.0,12.584722,-81.700556,Colombia
261,Youkounkoun,7952.0,12.5333333,-13.133333300000002,Guinea
262,Oranjestad,29998.0,12.516666699999998,-70.0333333,Aruba
263,Farim,6792.0,12.4838889,-15.221666699999998,Guinea-Bissau
264,Koundara,13989.0,12.483333300000002,-13.3,Guinea
265,Hillsborough,770.0,12.483333300000002,-61.466666700000005,Grenada
266,Gabú,14430.0,12.2833333,-14.2166667,Guinea-Bissau
267,Sauteurs,1320.0,12.2166667,-61.6333333,Grenada
268,Kousséri,435986.0,12.0783333,15.0308333,Cameroon
269,Malanville,37117.0,11.8613889,3.3858333,Benin
270,Bereda,11262.0,11.85,51.05,Somalia
271,Manaure,9703.0,11.775047,-72.44447199999999,Colombia
272,Punto Fijo,131797.0,11.6997222,-70.1991667,"Venezuela, Bolivarian Republic of"
273,Punta Cardón,58933.0,11.6580556,-70.215,"Venezuela, Bolivarian Republic of"
274,Jibuti,623891.0,11.595,43.148055600000006,Djibouti
275,Qandala,15923.0,11.471111099999998,49.8738889,Somalia
276,Banikoara,22487.0,11.3,2.4333333,Benin
277,Scarborough,4595.0,11.1833333,-60.7333333,Trinidad and Tobago
278,La Cruz,4319.0,11.073771,-85.632716,Costa Rica
279,Bawku,41808.0,11.0580556,-0.2416666999999999,Ghana
280,Mora,55488.0,11.0425,14.1447222,Cameroon
281,Los Chiles,3342.0,11.033333,-84.716667,Costa Rica
282,Navrongo,25470.0,10.895,-1.0938888999999998,Ghana
283,Dapaong,31315.0,10.8638889,0.205,Togo
284,Mucurapo,4342.0,10.6666667,-61.5333333,Trinidad and Tobago
285,Tingréla,67746.0,10.48115,-6.406939,Côte d'Ivoire
286,Mango,34791.0,10.3591667,0.4708332999999999,Togo
287,Birao,11833.0,10.2833333,22.7833333,Central African Republic
288,Bindi,3331.0,9.9166667,-11.45,Sierra Leone
289,Gberia Fotombu,3171.0,9.883333300000002,-11.1666667,Sierra Leone
290,Point Pedro,89944.0,9.8166667,80.2333333,Sri Lanka
291,Valvedditturai,78324.0,9.8166667,80.16666670000001,Sri Lanka
292,Ferkessédougou,74966.0,9.5928,-5.1944870000000005,Côte d'Ivoire
293,El Porvenir,10.0,9.5652778,-78.9533333,Panama
294,Portobelo,1274.0,9.55,-79.65,Panama
295,Ndélé,11941.0,8.409166699999998,20.6530556,Central African Republic
296,Mabaruma,717.0,8.2,-59.7833333,Guyana
297,Ollei,109.0,7.717222200000001,134.6122222,Palau
298,Ulimang,130.0,7.6216667,134.63888889999998,Palau
299,Yekepa,24746.0,7.579444400000001,-8.5377778,Liberia
300,Ganta,13828.0,7.302222200000001,-8.530833300000001,Liberia
301,Kudat,32397.0,6.8837,116.8477,Malaysia
302,Dhidhdhoo,3039.0,6.883333299999999,73.1,Maldives
303,Georgetown,235017.0,6.8,-58.1666667,Guyana
304,Nolhivaranfaru,448.0,6.7166667,73.1,Maldives
305,Kangar,63894.0,6.4414,100.198619,Malaysia
306,Nieuw Nickerie,13410.0,5.95,-56.9833333,Suriname
307,Sabang,24519.0,5.893333,95.321389,Indonesia
308,Mariënburg,4463.0,5.883333299999999,-55.05,Suriname
309,Mana,5887.0,5.6666667,-53.7833333,French Guiana
310,Banda Aceh,250796.0,5.5577,95.3222,Indonesia
311,Iracoubo,1539.0,5.4833333,-53.216666700000005,French Guiana
312,Gbadolite,50489.0,4.283333,21.016667,"Congo, The Democratic Republic of the"
313,Bosobolo,14552.0,4.183333,19.9,"Congo, The Democratic Republic of the"
314,Mandera,36066.0,3.9261111,41.8461111,Kenya
315,Malabo,156039.0,3.75,8.7833333,Equatorial Guinea
316,Moyo,14377.0,3.6280556000000006,31.753611100000004,Uganda
317,Moyale,16246.0,3.5163888999999995,39.0691667,Kenya
318,Kaabong,9806.0,3.4836111000000005,34.1491667,Uganda
319,Luba,8668.0,3.45,8.55,Equatorial Guinea
320,Butaritari,2582.0,3.0833333,172.81666669999998,Kiribati
321,Bonfim,5769.0,3.083333,-59.95,Brazil
322,Boa Vista,235159.0,2.816667,-60.666667,Brazil
323,Bitam,10297.0,2.0833333,11.483333300000002,Gabon
324,Rawannawi,1916.0,2.05,173.2666667,Kiribati
325,Sémbé,2514.0,1.6480556,14.5805556,Congo
326,Impfondo,20859.0,1.6380556,18.0666667,Congo
327,Oyem,30870.0,1.6166667,11.5833333,Gabon
328,Singapore,3547809.0,1.2930556,103.8558333,Singapore
329,San Lorenzo,20209.0,1.2883333,-78.83694440000001,Ecuador
330,Valdez,11441.0,1.2491667,-78.9830556,Ecuador
331,Nsunga,20049.0,-1.1438889,31.3947222,"Tanzania, United Republic of"
332,Kayanga,12407.0,-1.2166667,31.65,"Tanzania, United Republic of"
333,Ruhengeri,86737.0,-1.4833333,29.616666700000003,Rwanda
334,Byumba,70586.0,-1.5775,30.0625,Rwanda
335,Lorengau,5807.0,-2.0166667,147.2666667,Papua New Guinea
336,Kavieng,14491.0,-2.5666667000000003,150.8,Papua New Guinea
337,Kirundo,6084.0,-2.5847222000000003,30.0972222,Burundi
338,Muyinga,71095.0,-2.8494444,30.336111100000004,Burundi
339,Aguas Verdes,9147.0,-3.4813889,-80.245,Peru
340,Zarumilla,16983.0,-3.5030556000000006,-80.27305559999999,Peru
341,Victoria,26361.0,-4.616666700000001,55.45,Seychelles
342,Cabinda,66020.0,-5.55,12.2,Angola
343,Lolua,628.0,-5.6666667,176.1333333,Tuvalu
344,Soyo,67553.0,-6.134903,12.368935,Angola
345,Tonga,376.0,-6.2833333,176.31666669999998,Tuvalu
346,Georgetown,538.0,-7.9333333,-14.4166667,"Saint Helena, Ascension and Tristan da Cunha"
347,Gizo,6155.0,-8.1,156.85,Solomon Islands
348,Buala,2689.0,-8.1333333,159.58333330000002,Solomon Islands
349,Kaputa,2683.0,-8.4666667,29.6666667,Zambia
350,Mpulungu,8547.0,-8.766666699999998,31.1333333,Zambia
351,Omoka,180.0,-8.981666699999998,-158.0605556,Cook Islands
352,Chitipa,8825.0,-9.7166667,33.2666667,Malawi
353,Atuona,1762.0,-9.8,-139.0333333,French Polynesia
354,Karonga,34211.0,-9.9333333,33.9333333,Malawi
355,Tauhunu,69.0,-10.425,-161.03527780000002,Cook Islands
356,Guayaramerín,36010.0,-10.8,-65.3833333,"Bolivia, Plurinational State of"
357,Riberalta,74018.0,-10.983333300000002,-66.1,"Bolivia, Plurinational State of"
358,Mitsamiouli,6104.0,-11.3847222,43.2844444,Comoros
359,Moroni,42882.0,-11.704166699999998,43.2402778,Comoros
360,Nguiu,1250.0,-11.75911,130.63815300000002,Australia
361,Galiwinku,1347.0,-12.02811,135.564865,Australia
362,Mtsamboro,7725.0,-12.696666699999998,45.0666667,Mayotte
363,Bandraboua,7882.0,-12.7016667,45.1205556,Mayotte
364,Pemba,108737.0,-12.9608333,40.5077778,Mozambique
365,Montepuez,72279.0,-13.125555599999998,38.9997222,Mozambique
366,Ambilobe,14635.0,-13.2,49.05,Madagascar
367,Vailala,451.0,-13.2166667,-176.15,Wallis and Futuna
368,Alele,901.0,-13.233333300000002,-176.15,Wallis and Futuna
369,Fagamalo,294.0,-13.4166667,-172.35,Samoa
370,Saleaula,597.0,-13.4333333,-172.33333330000002,Samoa
371,Ambanja,30621.0,-13.6833333,48.45,Madagascar
372,Sola,1171.0,-13.883333300000002,167.55,Vanuatu
373,Luganville,13398.0,-15.5333333,167.16666669999998,Vanuatu
374,Jamestown,637.0,-15.9333333,-5.7166667,"Saint Helena, Ascension and Tristan da Cunha"
375,Hihifo,815.0,-15.95,-173.75,Tonga
376,Faanui,2061.0,-16.4833333,-151.75,French Polynesia
377,Kariba,34797.0,-16.5166667,28.8,Zimbabwe
378,Mount Darwin,11963.0,-16.783333300000002,31.5833333,Zimbabwe
379,Oshikango,2658.0,-17.4,15.883333300000002,Namibia
380,Eenhana,3405.0,-17.466666699999998,16.3333333,Namibia
381,Kasane,9250.0,-17.8166667,25.15,Botswana
382,Kachikau,961.0,-18.1666667,24.4666667,Botswana
383,Arica,186000.0,-18.475,-70.30417,Chile
384,Neiafu,4320.0,-18.65,-173.9833333,Tonga
385,Mutalau,129.0,-18.9333333,-169.83333330000002,Niue
386,Namukulu,14.0,-18.95,-169.9,Niue
387,Mayor Pablo Lagerenza,1205.0,-19.916667,-60.783333,Paraguay
388,Cap Malheureux,4803.0,-19.9841667,57.6141667,Mauritius
389,Grand Gaube,7156.0,-20.0063889,57.6608333,Mauritius
390,Iquique,227501.0,-20.22083,-70.14305999999999,Chile
391,Poum,1568.0,-20.2333333,164.0166667,New Caledonia
392,Ouégoa,2092.0,-20.35,164.43333330000002,New Caledonia
393,Saint-Denis,137198.0,-20.8666667,55.466666700000005,Réunion
394,Sainte-Marie,31638.0,-20.8833333,55.55,Réunion
395,Fuerte Olimpo,2478.0,-21.033333,-57.9,Paraguay
396,Messina,20191.0,-22.351308,30.039597,South Africa
397,Tartagal,63600.0,-22.516365,-63.801314,Argentina
398,Thohoyandou,44046.0,-22.945642000000003,30.484972,South Africa
399,San Ramon de la Nueva Oran,84504.0,-23.13398,-64.32464499999999,Argentina
400,Bulembu,2263.0,-25.9666667,31.1333333,Eswatini
401,Mhlume,8654.0,-26.0333333,31.85,Eswatini
402,Hlotse,46416.0,-28.8833333,28.05,Lesotho
403,Teyateyaneng,25149.0,-29.15,27.7333333,Lesotho
404,Bella Unión,14639.0,-30.25,-57.5833333,Uruguay
405,Artigas,44564.0,-30.4,-56.466666700000005,Uruguay
406,Awanui,388.0,-35.05,173.25,New Zealand
407,Kaeo,508.0,-35.1,173.783333,New Zealand
408,Port-aux-Français,45.0,-49.35,70.2166667,French Southern Territories
409,Barentsburg,576.0,78.0666667,14.233333300000002,Svalbard and Jan Mayen
410,Hvolsvöllur,753.0,63.75,-20.233333,Iceland
411,Vestmannaeyjar,4203.0,63.365,-20.2075,Iceland
412,Lopra,124.0,61.4333333,-6.7666667,Faroe Islands
413,Sumba,289.0,61.4,-6.7,Faroe Islands
414,Nanortalik,1509.0,60.1166667,-45.216666700000005,Greenland
415,Narsaq Kujalleq,110.0,60.0030556,-44.6636111,Greenland
416,Tammisaari,14377.0,59.966667,23.433333,Finland
417,Hanko,9962.0,59.833333,22.95,Finland
418,Svenevik,203.0,58.05,7.2,Norway
419,Mandal,10233.0,58.033333,7.45,Norway
420,Saru,299.0,57.604722200000005,26.538611100000004,Estonia
421,Misso,324.0,57.60222220000001,27.2377778,Estonia
422,Kraslava,11088.0,55.9,27.1666667,Latvia
423,Daugavpils,111564.0,55.8833333,26.5333333,Latvia
424,Ystad,17266.0,55.416667,13.816667,Sweden
425,Trelleborg,25494.0,55.36666700000001,13.166667000000002,Sweden
426,Rødby,2379.0,54.694952,11.38885,Denmark
427,Rødbyhavn,2145.0,54.654424,11.352033,Denmark
428,Veisiejai,1654.0,54.1,23.7,Lithuania
429,Druskininkai,17793.0,54.0166667,23.9666667,Lithuania
430,Stolin,10491.0,51.8833333,26.85,Belarus
431,Malaryta,9692.0,51.7833333,24.0833333,Belarus
432,Clonakilty,4065.0,51.6230556,-8.8705556,Ireland
433,Skibbereen,2098.0,51.55,-9.266666699999998,Ireland
434,Eijsden,12079.0,50.777735,5.710742,Netherlands
435,Vaals,10679.0,50.769835,5.994864,Netherlands
436,Falmouth,22222.0,50.148333,-5.076111,United Kingdom
437,Penzance,20812.0,50.113611,-5.547778,United Kingdom
438,Virton,11259.0,49.566667,5.533333,Belgium
439,Rouvroy,1946.0,49.533333,5.5,Belgium
440,Tétange,2929.0,49.4758333,6.0422222,Luxembourg
441,Schengen,470.0,49.4716667,6.3658333,Luxembourg
442,Ustrzyki Dolne,9610.0,49.430858,22.584761,Poland
443,Zakopane,27581.0,49.296247,19.956785,Poland
444,Loucovice,1960.0,48.620897,14.249763,Czechia
445,Vyssi Brod,2547.0,48.617733,14.31264,Czechia
446,Sturovo,11708.0,47.8,18.7333333,Slovakia
447,Komárno,37365.0,47.7666667,18.1333333,Slovakia
448,Garmisch-Partenkirchen,26346.0,47.5,11.1,Germany
449,Oberstdorf,9895.0,47.4,10.283333,Germany
450,Triesen,4701.0,47.1,9.5333333,Liechtenstein
451,Balzers,4447.0,47.0666667,9.5,Liechtenstein
452,Arnoldstein,6923.0,46.546111,13.71,Austria
453,Ferlach,7661.0,46.526944,14.301944,Austria
454,Taraclia,14094.0,45.9,28.668889,"Moldova, Republic of"
455,Mendrisio,6192.0,45.86741,8.982097,Switzerland
456,Harkány,3450.0,45.850016,18.236679,Hungary
457,Chiasso,8232.0,45.83491,9.02054,Switzerland
458,Beremend,2775.0,45.791084000000005,18.432628,Hungary
459,Mandalgovi,15433.0,45.75,106.26666670000002,Mongolia
460,Vulcanesti,17032.0,45.684167,28.402778,"Moldova, Republic of"
461,Portoroz,2769.0,45.5161111,13.588333300000002,Slovenia
462,Lucija,6036.0,45.4963889,13.6136111,Slovenia
463,Hovd,27929.0,44.6666667,102.1666667,Mongolia
464,Ponyzivka,348.0,44.397104,33.939115,Ukraine
465,Katsiveli,631.0,44.396308000000005,33.973035,Ukraine
466,San Marino,4598.0,43.9333333,12.45,San Marino
467,Chiesanuova,952.0,43.9166667,12.4166667,San Marino
468,Nasturelu,2809.0,43.666667,25.466667,Romania
469,Zimnicea,15228.0,43.666667,25.366667,Romania
470,Korcula,3141.0,42.9622222,17.136944399999997,Croatia
471,Bileca,13256.0,42.8719444,18.4297222,Bosnia and Herzegovina
472,Trebinje,33177.0,42.71194439999999,18.3441667,Bosnia and Herzegovina
473,Dubrovnik,28428.0,42.6505556,18.0913889,Croatia
474,Andorra la Vella,20430.0,42.5,1.5166667,Andorra
475,Sant Julià de Lòria,8020.0,42.466666700000005,1.5,Andorra
476,Podgorica,156988.0,42.441111,19.263611,Montenegro
477,Presevo,13537.0,42.309167,21.649167,Serbia
478,Prizren,159145.0,42.213889,20.739722,Serbia
479,Harrow,3100.0,42.033333,-82.916667,Canada
480,Colchester,2307.0,41.983333,-82.93333299999999,Canada
481,Ulcinj,10641.0,41.928333,19.206389,Montenegro
482,Ajaccio,51058.0,41.927226,8.734619,France
483,Porto-Vecchio,11065.0,41.589364,9.279907,France
484,Usukhchay,1966.0,41.422446,47.913179,Russian Federation
485,Petric,29956.0,41.4,23.2166667,Bulgaria
486,Zlatograd,7673.0,41.3833333,25.1,Bulgaria
487,Shaumiani,5237.0,41.3494444,44.7563889,Georgia
488,Kurush,7807.0,41.28413,47.834536,Russian Federation
489,Ninotsminda,6142.0,41.26694439999999,43.5905556,Georgia
490,Bistrica,4798.0,40.9833333,21.3666667,North Macedonia
491,Bac,692.0,40.9333333,21.5666667,North Macedonia
492,Ilyich,12895.0,40.846389,68.50666700000001,Kazakhstan
493,Zhetysay,29257.0,40.733333,68.3,Kazakhstan
494,Sülüktü,15019.0,39.9302778,69.5697222,Kyrgyzstan
495,Sarandë,15147.0,39.875555600000006,20.0052778,Albania
496,Isfana,16952.0,39.8333333,69.5166667,Kyrgyzstan
497,Konispol,1349.0,39.6588889,20.1813889,Albania
498,Kapan,33161.0,39.201111100000006,46.415,Armenia
499,Meghri,4540.0,38.9022222,46.2383333,Armenia
500,Kijäba,4567.0,38.532778,48.816667,Azerbaijan
501,Astara,15190.0,38.455977,48.87498,Azerbaijan
502,Boysun,25050.0,38.2061111,67.1986111,Uzbekistan
503,Murgab,13199.0,37.5,61.966666700000005,Turkmenistan
504,Kaka,18545.0,37.35,59.6,Turkmenistan
505,Dusti,8700.0,37.34861110000001,68.6733333,Tajikistan
506,Shaartuz,13042.0,37.25944439999999,68.13472220000001,Tajikistan
507,Termiz,140404.0,37.224166700000005,67.2783333,Uzbekistan
508,Pachino,22301.0,36.716667,15.083332999999998,Italy
509,Pozzallo,19030.0,36.716667,14.85,Italy
510,Samandag,38434.0,36.084187,35.977139,Turkey
511,Anamur,57157.0,36.075081,32.836907000000004,Turkey
512,Safi,1863.0,35.833056,14.484722,Malta
513,Zurrieq,9149.0,35.831111,14.474167,Malta
514,Ierápetra,12536.0,35.01,25.7352778,Greece
515,Pírgos,1134.0,35.0,25.15,Greece
516,Ypsonas,7349.0,34.6833333,32.9583333,Cyprus
517,Lemesos,154018.0,34.675,33.033333299999995,Cyprus
518,Hit,32008.0,33.6366667,42.8225,Iraq
519,Jazzin,13477.0,33.5416667,35.58888889999999,Lebanon
520,Qatana,27254.0,33.4333333,36.0833333,Syrian Arab Republic
521,Baghdad,5672516.0,33.3386111,44.39388889999999,Iraq
522,Sur,135211.0,33.271111100000006,35.196388899999995,Lebanon
523,Bin Qirdan,13364.0,33.13783,11.219649,Tunisia
524,Tatawin,62588.0,32.929674,10.451767,Tunisia
525,Nawá,50821.0,32.8833333,36.05,Syrian Arab Republic
526,Funchal,98041.0,32.633333,-16.9,Portugal
527,Câmara de Lobos,32209.0,32.633333,-16.966667,Portugal
528,Warqla,150611.0,31.9575,5.3277778,Algeria
529,Busayra,8238.0,30.737604,35.607747,Jordan
530,Mizpe Ramon,4769.0,30.609444,34.801111,Israel
531,Mirabad,14160.0,30.436244,61.838304,Afghanistan
532,Agadir,656110.0,30.420664,-9.593161,Morocco
533,Wadi Musa,15618.0,30.322211,35.479329,Jordan
534,Rudbar,11034.0,30.15,62.6,Afghanistan
535,Tiznit,73334.0,29.697425,-9.731618,Morocco
536,Elat,46707.0,29.558049,34.948212,Israel
537,Hawalli,93312.0,29.332778,48.028611,Kuwait
538,Bayan,30656.0,29.318056,48.039167,Kuwait
539,Santa Lucía,51877.0,27.911307,-15.543416,Spain
540,Agüimes,21908.0,27.905052,-15.445395,Spain
541,Adrar,89441.0,27.9,-0.2833333,Algeria
542,Phuntsholing,65892.0,26.85,89.3833333,Bhutan
543,Samdrup Jongkhar,14134.0,26.816666700000003,91.5666667,Bhutan
544,Bandar-e Lengeh,22771.0,26.557918,54.880669,"Iran, Islamic Republic of"
545,Rajbiraj,33063.0,26.5333333,86.75,Nepal
546,Biratnagar,182331.0,26.4833333,87.2833333,Nepal
547,Marzuq,43732.0,25.9044444,13.897222199999998,Libya
548,Esna,69335.0,25.2930556,32.5527778,Egypt
549,Chabahar,47291.0,25.2919,60.643,"Iran, Islamic Republic of"
550,Umm Bab,2500.0,25.214167,50.807222,Qatar
551,Gat,24347.0,24.9647222,10.1727778,Libya
552,Hirara,34354.0,24.803788,125.302222,Japan
553,Abu Samrah,938.0,24.748333,50.84,Qatar
554,Abu Dhabi,603687.0,24.466667,54.36666700000001,United Arab Emirates
555,Jati,9152.0,24.353901,68.267064,Pakistan
556,Ishigaki,44803.0,24.344782,124.157167,Japan
557,Keti Bandar,2934.0,24.144722,67.449722,Pakistan
558,Aswan,241282.0,24.0875,32.8988889,Egypt
559,Sur,77419.0,22.5666667,59.5288889,Oman
560,Chaochou,58795.0,22.55,120.5388889,"Taiwan, Province of China"
561,Tungkang,51500.0,22.4647222,120.44944440000002,"Taiwan, Province of China"
562,Bandarban,32526.0,22.2,92.2166667,Bangladesh
563,Duncan Town,70.0,22.1908333,-75.7258333,Bahamas
564,Matthew Town,452.0,20.95,-73.66666670000001,Bahamas
565,Teknaf,40562.0,20.8666667,92.3,Bangladesh
566,Niquero,18771.0,20.0430556,-77.58277779999999,Cuba
567,Santiago de Cuba,555878.0,20.0247222,-75.8219444,Cuba
568,Chengmai,68720.0,19.6825,110.090278,China
569,Bodden Town,6514.0,19.2833333,-81.25,Cayman Islands
570,Wanning,64954.0,18.800278,110.396667,China
571,Road Town,8449.0,18.4166667,-64.6166667,"Virgin Islands, British"
572,Jacmel,33569.0,18.2341667,-72.5347222,Haiti
573,Barahona,77161.0,18.2,-71.1,Dominican Republic
574,Les Cayes,59323.0,18.2,-73.75,Haiti
575,Pedernales,11071.0,18.0333333,-71.75,Dominican Republic
576,Santa Isabel,7260.0,17.9680556,-66.4052778,United States
577,Arroyo,7520.0,17.9677778,-66.0616667,United States
578,Morant Bay,9369.0,17.8833333,-76.41666670000001,Jamaica
579,Bull Savanna,6962.0,17.8833333,-77.6,Jamaica
580,Sabya,49398.0,17.149496,42.625368,Saudi Arabia
581,Charlestown,1538.0,17.1333333,-62.6166667,Saint Kitts and Nevis
582,Fig Tree,395.0,17.1166667,-62.6,Saint Kitts and Nevis
583,Liberta,1668.0,17.033333300000002,-61.7833333,Antigua and Barbuda
584,Salalah,178469.0,17.0175,54.0827778,Oman
585,Old Road,623.0,17.0166667,-61.8333333,Antigua and Barbuda
586,Dangriga,10750.0,16.966666699999998,-88.2166667,Belize
587,Jizan,79946.0,16.889167,42.551111,Saudi Arabia
588,Bababé,11507.0,16.3333333,-13.95,Mauritania
589,Punta Gorda,5026.0,16.1,-88.8,Belize
590,Grand-Bourg,5869.0,15.883333300000002,-61.3,Guadeloupe
591,Terre-de-Bas,1315.0,15.85,-61.6333333,Guadeloupe
592,Maghama,5100.0,15.516666699999998,-12.85,Mauritania
593,Pointe Michel,1202.0,15.25,-61.3833333,Dominica
594,Berekua,3195.0,15.233333300000002,-61.3166667,Dominica
595,Pakxé,88463.0,15.116667,105.783333,Lao People's Democratic Republic
596,Praia,111611.0,14.9166667,-23.5166667,Cabo Verde
597,São Filipe,8063.0,14.9,-24.5166667,Cabo Verde
598,Addi Ugri,17784.0,14.885555599999998,38.8163889,Eritrea
599,Champasak,12994.0,14.883333,105.866667,Lao People's Democratic Republic
600,La Libertad,4393.0,14.591110999999998,-92.193611,Mexico
601,Suchiate,13743.0,14.55,-92.216667,Mexico
602,Le Marin,7944.0,14.4666667,-60.8666667,Martinique
603,Sainte-Luce,9197.0,14.4666667,-60.9166667,Martinique
604,Dawei,136798.0,14.0833333,98.2,Myanmar
605,Iztapa,3937.0,13.933333,-90.7075,Guatemala
606,Edd,11259.0,13.9297222,41.6925,Eritrea
607,San José,18270.0,13.925556,-90.824444,Guatemala
608,Laborie,1133.0,13.75,-60.9833333,Saint Lucia
609,Vieux Fort,4629.0,13.7166667,-60.95,Saint Lucia
610,Gambissara,6755.0,13.233333300000002,-14.3166667,Gambia
611,Chirilagua,6393.0,13.220277800000002,-88.13861109999999,El Salvador
612,Intipucá,3540.0,13.1969444,-88.05444440000001,El Salvador
613,Gunjur,12530.0,13.1816667,-16.7583333,Gambia
614,El Perico,957.0,13.1388889,-87.0322222,Honduras
615,El Triunfo,7183.0,13.116666699999998,-87.0,Honduras
616,Bridgetown,98511.0,13.1,-59.6166667,Barbados
617,Oistins,2285.0,13.0666667,-59.5333333,Barbados
618,Lahij,23377.0,13.0566667,44.8819444,Yemen
619,Port Elizabeth,839.0,13.016666699999998,-61.2333333,Saint Vincent and the Grenadines
620,Magaria,19421.0,12.9975,8.9105556,Niger
621,Dovers,525.0,12.883333300000002,-61.1833333,Saint Vincent and the Grenadines
622,Aden,550744.0,12.7794444,45.036666700000005,Yemen
623,Oussouye,7107.0,12.485,-16.5469444,Senegal
624,Kédougou,16612.0,12.483333300000002,-11.95,Senegal
625,Mergui,173317.0,12.4333333,98.6,Myanmar
626,Gouyave,3378.0,12.1666667,-61.7333333,Grenada
627,Grenville,2476.0,12.116666699999998,-61.6166667,Grenada
628,Willemstad,97590.0,12.1,-68.91666670000001,Netherlands Antilles
629,Nieuwpoort,1937.0,12.05,-68.8166667,Netherlands Antilles
630,Gaya,33054.0,11.8877778,3.4466667,Niger
631,Sikasso,144801.0,11.3166667,-5.6666667,Mali
632,Catió,9898.0,11.2833333,-15.25,Guinea-Bissau
633,Bubaque,9941.0,11.2833333,-15.8333333,Guinea-Bissau
634,San Juan del Sur,6787.0,11.25,-85.8666667,Nicaragua
635,San Carlos,12931.0,11.116666699999998,-84.7833333,Nicaragua
636,Svay Rieng,23956.0,11.0833333,105.8,Cambodia
637,Kolondiéba,10041.0,11.0833333,-6.9,Mali
638,Kâmpôt,22696.0,10.616666699999998,104.1833333,Cambodia
639,Gaoua,7300.0,10.2991667,-3.2508333,Burkina Faso
640,Peñal,4899.0,10.1666667,-61.466666700000005,Trinidad and Tobago
641,Siparia,8568.0,10.133333300000002,-61.5,Trinidad and Tobago
642,Batié,6525.0,9.883333300000002,-2.9166667,Burkina Faso
643,Bac Lieu,107920.0,9.285,105.724444,Viet Nam
644,Cà Mau,111903.0,9.176944,105.15,Viet Nam
645,Corredor,7084.0,8.640016000000001,-82.94599699999999,Costa Rica
646,Golfito,6778.0,8.639011,-83.16602900000001,Costa Rica
647,Béboto,5432.0,8.2666667,16.9333333,Chad
648,Manavalakurichi,10720.0,8.133333,77.3,India
649,Kanniyakumari,20542.0,8.076111000000001,77.548333,India
650,Nzérékoré,132842.0,7.747222200000001,-8.823888900000002,Guinea
651,Bol,10551.0,7.6666667,15.9166667,Chad
652,Yomou,3614.0,7.560277799999999,-9.2652778,Guinea
653,Jaqué,1357.0,7.5175,-78.1702778,Panama
654,La Palma,1283.0,7.4333333,-80.4833333,Panama
655,Guasdualito,30860.0,7.247222200000001,-70.7294444,"Venezuela, Bolivarian Republic of"
656,Bomi,3583.0,7.246111099999999,-11.525833300000002,Sierra Leone
657,Gandorhun,7003.0,7.178611099999999,-11.784166699999998,Sierra Leone
658,Kloulklubed,531.0,7.039444400000001,134.2525,Palau
659,Ngaramash,135.0,6.901388900000001,134.1294444,Palau
660,Ouidah,83506.0,6.366666700000001,2.0833333,Benin
661,Cotonou,690584.0,6.35,2.4333333,Benin
662,Vogan,20386.0,6.3333333,1.5333333,Togo
663,Aného,47174.0,6.2333333,1.6,Togo
664,Sungai Kolok,42776.0,6.029774,101.965855,Thailand
665,Weligama,22183.0,5.9666667,80.41666670000001,Sri Lanka
666,Matara,43233.0,5.9486111,80.5427778,Sri Lanka
667,Buchanan,25864.0,5.8808333,-10.0466667,Liberia
668,Betong,29604.0,5.774337,101.072312,Thailand
669,Puerto Ayacucho,52528.0,5.6638889,-67.62361109999999,"Venezuela, Bolivarian Republic of"
670,Ituni,4567.0,5.5333333,-58.25,Guyana
671,Albina,4138.0,5.5,-54.05,Suriname
672,Brokopondo,2072.0,5.0666667,-54.966666700000005,Suriname
673,Takoradi,114989.0,4.883333299999999,-1.75,Ghana
674,Axim,24500.0,4.8683333,-2.2413889,Ghana
675,San-Pédro,195873.0,4.748508,-6.636301,Côte d'Ivoire
676,Sitangkai,17200.0,4.662778,119.392778,Philippines
677,Ligayan,2319.0,4.653333,119.470556,Philippines
678,Opobo,125398.0,4.564844,7.547802000000001,Nigeria
679,Opobo,125398.0,4.511419999999999,7.540093,Nigeria
680,Tabou,21511.0,4.42295,-7.3528,Côte d'Ivoire
681,Torit,20048.0,4.4133333,32.5677778,Sudan
682,Harper,32931.0,4.375,-7.7169444,Liberia
683,Yei,40382.0,4.091388899999999,30.678611100000005,Sudan
684,Mega,6884.0,4.05,38.3,Ethiopia
685,Saint-Georges,2743.0,3.9,-51.8,French Guiana
686,Mongoumba,11663.0,3.6333333,18.6,Central African Republic
687,Moyale,25993.0,3.569167,39.083333,Ethiopia
688,Nola,53270.0,3.5333333,16.0666667,Central African Republic
689,Lethem,716.0,3.3833333,-59.8,Guyana
690,Camopi,1295.0,3.1666667,-52.35,French Guiana
691,Akom,9709.0,2.7833333,10.5666667,Cameroon
692,Ambam,8476.0,2.3833333,11.2833333,Cameroon
693,Pasir Gudang,145739.0,1.462,103.9053,Malaysia
694,Aconibe,11199.0,1.3,10.9333333,Equatorial Guinea
695,Sri Aman,27218.0,1.2472219999999998,111.452778,Malaysia
696,Acurenam,2738.0,1.0333333,10.6666667,Equatorial Guinea
697,Thinadhoo,5361.0,0.5333333,72.9333333,Maldives
698,Kismayo,234884.0,-0.3666667,42.5333333,Somalia
699,Hithadhoo,9927.0,-0.6,73.08333329999999,Maldives
700,Bur Gabo,3096.0,-1.2166667,41.85,Somalia
701,Kabale,50871.0,-1.3261111,30.0038889,Uganda
702,Tabukiniberu,1993.0,-1.35,175.9833333,Kiribati
703,Kisoro,11554.0,-1.3538888999999998,29.6983333,Uganda
704,Ijaki,825.0,-1.9166667,175.58333330000002,Kiribati
705,Nyanza,56679.0,-2.5833333,29.7166667,Rwanda
706,Butare,89709.0,-2.5966667,29.7394444,Rwanda
707,Tchibanga,19365.0,-2.85,11.0333333,Gabon
708,Mayumba,3996.0,-3.4166667,10.65,Gabon
709,Puerto Nariño,2113.0,-3.770278,-70.38305600000001,Colombia
710,Rumonge,6074.0,-3.9722222,29.438888899999995,Burundi
711,Makamba,19642.0,-4.134722200000001,29.805,Burundi
712,Leticia,29666.0,-4.215278,-69.940556,Colombia
713,Cariamanga,16862.0,-4.3333333,-79.55,Ecuador
714,Kinkala,13882.0,-4.361388900000001,14.764444400000002,Congo
715,Macará,13035.0,-4.383333299999999,-79.95,Ecuador
716,Sawasawa,12975.0,-4.4666667,39.4833333,Kenya
717,Shimoni,2374.0,-4.65,39.3833333,Kenya
718,Loandjili,26387.0,-4.7561111,11.8577778,Congo
719,Tanrake,381.0,-7.25,177.15,Tuvalu
720,Asau,628.0,-7.5,178.66666669999998,Tuvalu
721,Soe,27718.0,-9.866667,124.283333,Indonesia
722,Kupang,282421.0,-10.166667,123.583333,Indonesia
723,Alotau,12095.0,-10.3,150.41666669999998,Papua New Guinea
724,Kirakira,1122.0,-10.45,161.91666669999998,Solomon Islands
725,Samarai,1638.0,-10.616666699999998,150.66666669999998,Papua New Guinea
726,Lata,539.0,-10.7166667,165.83333330000002,Solomon Islands
727,Tingi,16315.0,-11.3,35.033333299999995,"Tanzania, United Republic of"
728,Masuguru,7946.0,-11.366666699999998,38.4166667,"Tanzania, United Republic of"
729,Lubumbashi,1374808.0,-11.666667,27.466667,"Congo, The Democratic Republic of the"
730,Kipushi,62382.0,-11.766667,27.233333,"Congo, The Democratic Republic of the"
731,Domoni,14508.0,-12.2569444,44.53194439999999,Comoros
732,Fomboni,14965.0,-12.28,43.7425,Comoros
733,Bandrélé,6352.0,-12.9066667,45.1913889,Mayotte
734,Chirongui,6174.0,-12.9319444,45.1483333,Mayotte
735,Maninoa,366.0,-14.016666699999998,-171.7833333,Samoa
736,Fausaga,303.0,-14.016666699999998,-171.8,Samoa
737,Velé,309.0,-14.3166667,-178.06666669999998,Wallis and Futuna
738,Kolia,437.0,-14.3166667,-178.08333330000002,Wallis and Futuna
739,Namibe,80150.0,-15.196110999999998,12.152222,Angola
740,Thyolo,5776.0,-16.0666667,35.1333333,Malawi
741,Nsanje,21782.0,-16.9166667,35.2666667,Malawi
742,Ondjiva,10169.0,-17.066667000000002,15.733332999999998,Angola
743,Sesheke,20162.0,-17.466666699999998,24.3,Zambia
744,Ilo,53717.0,-17.6394444,-71.3375,Peru
745,Vila,35903.0,-17.7333333,168.31666669999998,Vanuatu
746,Livingstone,109218.0,-17.85,25.8666667,Zambia
747,Tacna,280996.0,-18.0055556,-70.2483333,Peru
748,Amuri,285.0,-18.8538889,-159.7963889,Cook Islands
749,Hakupu,221.0,-19.1,-169.83333330000002,Niue
750,Avatele,122.0,-19.1,-169.91666669999998,Niue
751,Isangel,1437.0,-19.55,169.2666667,Vanuatu
752,Pangai,1737.0,-19.8,-174.35,Tonga
753,Surinam,10621.0,-20.5097222,57.5052778,Mauritius
754,Souillac,4392.0,-20.5166667,57.5166667,Mauritius
755,Chiredzi,13030.0,-21.05,31.6666667,Zimbabwe
756,Vaini,2976.0,-21.2,-175.2,Tonga
757,Avarua,13374.0,-21.2077778,-159.775,Cook Islands
758,Saint-Philippe,5441.0,-21.35,55.7666667,Réunion
759,Saint-Joseph,33696.0,-21.3666667,55.6166667,Réunion
760,Villazón,30254.0,-22.1,-65.6,"Bolivia, Plurinational State of"
761,Beitbridge,11865.0,-22.2166667,30.0,Zimbabwe
762,Mont-Dore,26237.0,-22.2833333,166.58333330000002,New Caledonia
763,Bermejo,28287.0,-22.65,-64.3666667,"Bolivia, Plurinational State of"
764,Vao,1807.0,-22.6666667,167.4833333,New Caledonia
765,Rairua,486.0,-23.8666667,-147.68333330000002,French Polynesia
766,Anatonu,247.0,-23.8833333,-147.6333333,French Polynesia
767,Beloha,23021.0,-25.1666667,45.05,Madagascar
768,Tsihombe,29825.0,-25.3,45.4833333,Madagascar
769,Matola,543907.0,-25.9622222,32.4588889,Mozambique
770,Maputo,1191613.0,-25.965277800000003,32.5891667,Mozambique
771,Tsabong,8326.0,-26.05,22.45,Botswana
772,Bokspits,547.0,-26.9,20.7,Botswana
773,Hluti,6763.0,-27.2166667,31.616666700000003,Eswatini
774,Lavumisa,1300.0,-27.316666700000003,31.9,Eswatini
775,Ayolas,12064.0,-27.4,-56.9,Paraguay
776,Yabebyry,217.0,-27.4,-57.183333,Paraguay
777,Warmbad,6700.0,-28.45,18.7333333,Namibia
778,Oranjemund,8496.0,-28.55,16.4333333,Namibia
779,Mafeteng,40591.0,-29.816666700000003,27.25,Lesotho
780,Quthing,17073.0,-30.4,27.7166667,Lesotho
781,Jaguarão,29613.0,-32.566666999999995,-53.38333299999999,Brazil
782,Santa Vitória do Palmar,27776.0,-33.516667,-53.35,Brazil
783,Hermanus,25153.0,-34.418696000000004,19.234464000000003,South Africa
784,Bredasdorp,14936.0,-34.532154,20.040308,South Africa
785,Paso de Carrasco,13846.0,-34.8602778,-56.05222220000001,Uruguay
786,Maldonado,67188.0,-34.9,-54.95,Uruguay
787,Edinburgh,271.0,-37.05,-12.3,"Saint Helena, Ascension and Tristan da Cunha"
788,New Norfolk,5526.0,-42.78075,147.05938700000002,Australia
789,Hobart,204863.0,-42.883209,147.331665,Australia
790,Coihaique,45788.0,-45.566667,-72.06666700000001,Chile
791,Owaka,395.0,-46.45,169.666667,New Zealand
792,Bluff,1938.0,-46.6,168.333333,New Zealand
793,Rio Gallegos,93234.0,-51.622613,-69.218127,Argentina
794,Punta Arenas,117432.0,-53.15,-70.916667,Chile
795,Ushuaia,58045.0,-54.8,-68.3,Argentina
796,Encamp,11224.0,42.5333333,1.5833333,Andorra
797,Les Escaldes,15854.0,42.5,1.5333333,Andorra
798,Pagman,49173.0,34.5875,68.953333,Afghanistan
799,Kabul,3043589.0,34.516667,69.18333299999999,Afghanistan
800,Freetown,623.0,17.05,-61.7,Antigua and Barbuda
801,All Saints,2526.0,17.05,-61.8,Antigua and Barbuda
802,Rrogozhinë,5620.0,41.0763889,19.6652778,Albania
803,Përrenjas,4015.0,41.0730556,20.5488889,Albania
804,Sasunik,1959.0,40.2472222,44.3380556,Armenia
805,Amberd,1267.0,40.2416667,44.2727778,Armenia
806,Soto,1987.0,12.266666699999998,-69.1,Netherlands Antilles
807,Rincón,1496.0,12.233333300000002,-68.33333329999999,Netherlands Antilles
808,Camacupa,19150.0,-12.016667,17.483333,Angola
809,Catabola,18858.0,-12.15,17.283333,Angola
810,Rivadavia,65641.0,-33.190509000000006,-68.46081,Argentina
811,Villa Constitucion,44278.0,-33.227778,-60.329699,Argentina
812,Reichenau,2673.0,47.7,15.833332999999998,Austria
813,Hallein,18980.0,47.683333000000005,13.1,Austria
814,Nelson Bay,7725.0,-32.720428000000005,152.143982,Australia
815,Lemon Tree Passage,5865.0,-32.731579,152.03718600000002,Australia
816,Ramana,8855.0,40.442222,49.980556,Azerbaijan
817,Qala,2709.0,40.44182,50.168121,Azerbaijan
818,Serici,3663.0,44.4652778,18.5580556,Bosnia and Herzegovina
819,Donje Vukovije,3535.0,44.4636111,18.7538889,Bosnia and Herzegovina
820,Hillaby,519.0,13.2166667,-59.5833333,Barbados
821,Blackmans,623.0,13.1833333,-59.5333333,Barbados
822,Narayanganj,223773.0,23.6233333,90.5011111,Bangladesh
823,Faridpur,112200.0,23.6,89.83333329999999,Bangladesh
824,Lennik,8818.0,50.8,4.15,Belgium
825,Gooik,8957.0,50.8,4.116667,Belgium
826,Goulouré,6719.0,12.2305556,-1.9288889,Burkina Faso
827,Kokologo,25958.0,12.1897222,-1.8855556,Burkina Faso
828,Zlatica,4881.0,42.716666700000005,24.1333333,Bulgaria
829,Ajtos,21177.0,42.7,27.25,Bulgaria
830,Muramvya,18039.0,-3.2680556,29.616666700000003,Burundi
831,Bujumbura,330539.0,-3.3761111000000006,29.36,Burundi
832,Cové,38566.0,7.2333333,2.3,Benin
833,Bohicon,125116.0,7.2,2.0666667000000003,Benin
834,Caracollo,4708.0,-17.65,-67.16666670000001,"Bolivia, Plurinational State of"
835,Capinota,5157.0,-17.716666699999998,-66.2333333,"Bolivia, Plurinational State of"
836,Orizona,7583.0,-17.05,-48.3,Brazil
837,Itamaraju,47630.0,-17.066667000000002,-39.533333,Brazil
838,Andros Town,2456.0,24.7,-77.7666667,Bahamas
839,Cockburn Town,831.0,24.0333333,-74.5166667,Bahamas
840,Mongar,1397.0,27.25,91.2,Bhutan
841,Shemgang,1182.0,27.2333333,90.65,Bhutan
842,Kalamare,2339.0,-22.8666667,26.5,Botswana
843,Mokobeng,1822.0,-22.9833333,27.5833333,Botswana
844,Slonim,51435.0,53.0866667,25.3219444,Belarus
845,Kleck,9641.0,53.06527779999999,26.6416667,Belarus
846,Belmopan,13381.0,17.25,-88.7666667,Belize
847,San Ignacio,16813.0,17.1561111,-89.0713889,Belize
848,Torbay,3097.0,47.65,-52.733333,Canada
849,Wabana,2362.0,47.65,-52.933333,Canada
850,Mangai,37185.0,-4.05,19.533333,"Congo, The Democratic Republic of the"
851,Kinshasa,7787832.0,-4.3,15.3,"Congo, The Democratic Republic of the"
852,Bossembélé,11518.0,5.2666667,17.65,Central African Republic
853,Zemio,7453.0,5.0333333,25.1333333,Central African Republic
854,Mossendjo,21555.0,-2.9505556,12.7261111,Congo
855,Sibiti,19089.0,-3.6858333,13.3458333,Congo
856,Cham,13431.0,47.182126,8.463576,Switzerland
857,Grabs,6244.0,47.182061,9.443083,Switzerland
858,Bongouanou,38756.0,6.651749000000001,-4.204061,Côte d'Ivoire
859,Dimbokro,73789.0,6.646780000000001,-4.70519,Côte d'Ivoire
860,Roto,74.0,-10.883333300000002,-165.83333330000002,Cook Islands
861,San Javier,22427.0,-35.6,-71.75,Chile
862,Linares,69536.0,-35.85,-71.6,Chile
863,Melong,37216.0,5.116666700000001,9.95,Cameroon
864,Nkongsamba,117076.0,4.9533333,9.9325,Cameroon
865,Huaibei,903039.0,33.974444,116.791667,China
866,Xuanwu,56195.0,33.966667,115.233333,China
867,Pesca,5113.0,5.55,-73.05,Colombia
868,Caramanta,3044.0,5.5478190000000005,-75.643677,Colombia
869,Atenas,7014.0,9.978058,-84.380319,Costa Rica
870,San Isidro,17617.0,9.977033,-84.007743,Costa Rica
871,Abreus,16711.0,22.2775,-80.5675,Cuba
872,Palmira,23078.0,22.2416667,-80.39027779999999,Cuba
873,Sal Rei,2089.0,16.1833333,-22.9166667,Cabo Verde
874,Tarrafal,6366.0,15.2833333,-23.7666667,Cabo Verde
875,Polis,1975.0,35.036666700000005,32.4263889,Cyprus
876,Livadia,5329.0,34.9541667,33.6291667,Cyprus
877,Benesov,16321.0,49.782377,14.686569,Czechia
878,Dobris,8066.0,49.780879,14.170542,Czechia
879,Herzogenrath,47425.0,50.866667,6.1,Germany
880,Meerane,17646.0,50.85,12.466667,Germany
881,Grindsted,9414.0,55.754,8.912307,Denmark
882,Hørve,2382.0,55.75292,11.452976,Denmark
883,Barroui,1498.0,15.4333333,-61.45,Dominica
884,Pont Cassé,702.0,15.366666699999998,-61.35,Dominica
885,Constanza,29485.0,18.9166667,-70.75,Dominican Republic
886,Comendador,12072.0,18.8775,-71.70277779999999,Dominican Republic
887,Sidi Ali,25309.0,36.10055560000001,0.42,Algeria
888,Wahran,646025.0,35.6911111,-0.6416666999999999,Algeria
889,Guano,12659.0,-1.5833333,-78.6333333,Ecuador
890,Catarama,9723.0,-1.5833333,-79.4666667,Ecuador
891,Imavere,486.0,58.7330556,25.7725,Estonia
892,Siimusti,797.0,58.729722200000005,26.339444399999994,Estonia
893,Madinat Sittah Uktubar,41930.0,29.816666700000003,31.05,Egypt
894,El Wasta,37453.0,29.3377778,31.205555600000004,Egypt
895,Teseney,3753.0,15.11,36.6575,Eritrea
896,Madridejos,11743.0,39.468226,-3.531957,Spain
897,Valencia,769897.0,39.466667,-0.366667,Spain
898,Guder,12569.0,8.966667,37.766667,Ethiopia
899,Sebeta,19537.0,8.916667,38.616667,Ethiopia
900,Harjavalta,7572.0,61.316667,22.133333,Finland
901,Valkeakoski,20376.0,61.266667000000005,24.033333,Finland
902,Leynar,114.0,62.1166667,-7.0333333,Faroe Islands
903,Kvívík,372.0,62.1166667,-7.0666667,Faroe Islands
904,Bischheim,17164.0,48.610191,7.742446000000001,France
905,Corbeil-Essonnes,38760.0,48.606034,2.487571,France
906,Lastoursville,8340.0,-0.8166667,12.7,Gabon
907,Koulamoutou,16222.0,-1.1333333,12.483333300000002,Gabon
908,South Shields,83656.0,54.987778000000006,-1.421389,United Kingdom
909,Gretna,2692.0,54.983333,-3.066667,United Kingdom
910,Victoria,2256.0,12.1833333,-61.7,Grenada
911,Ureki,1625.0,41.9886111,41.7633333,Georgia
912,Gori,46680.0,41.97361110000001,44.1111111,Georgia
913,Macouria,8786.0,4.9166667,-52.3666667,French Guiana
914,Matoury,26357.0,4.85,-52.3333333,French Guiana
915,Koforidua,76669.0,6.0833333,-0.25,Ghana
916,Kade,13315.0,6.0833333,-0.8333333,Ghana
917,Ikerasaarsuk,116.0,68.1333333,-53.5333333,Greenland
918,Attu,281.0,67.95,-53.6333333,Greenland
919,Bansang,7152.0,13.4333333,-14.65,Gambia
920,Sukuta,15131.0,13.4113889,-16.708888899999998,Gambia
921,Kankan,114103.0,10.383333300000002,-9.3,Guinea
922,Tondon,12235.0,10.366666699999998,-13.35,Guinea
923,Le Gosier,28700.0,16.2,-61.4833333,Guadeloupe
924,Petit-Bourg,24996.0,16.1833333,-61.5833333,Guadeloupe
925,Bata,173036.0,1.85,9.75,Equatorial Guinea
926,Mongomo,6397.0,1.6333333,11.3166667,Equatorial Guinea
927,Pámfila,1251.0,39.1566667,26.5216667,Greece
928,Eleoúsa,963.0,39.15138889999999,20.9855556,Greece
929,La Reforma,4804.0,14.8,-91.816667,Guatemala
930,Nuevo Progreso,7947.0,14.8,-91.916667,Guatemala
931,Bissau,388094.0,11.85,-15.5833333,Guinea-Bissau
932,Fulacunda,1327.0,11.766666699999998,-15.1666667,Guinea-Bissau
933,Rosignol,5782.0,6.2833333,-57.5333333,Guyana
934,New Amsterdam,35039.0,6.25,-57.5166667,Guyana
935,Dulce Nombre,3590.0,14.85,-88.83333329999999,Honduras
936,El Guayabito,1404.0,14.8333333,-86.0333333,Honduras
937,Ogulin,8755.0,45.2661111,15.2286111,Croatia
938,Nova Gradiska,13329.0,45.255,17.383055600000002,Croatia
939,Mirebalais,9088.0,18.8333333,-72.1052778,Haiti
940,Lascahobas,7564.0,18.8294444,-71.93638890000001,Haiti
941,Ullo,10232.0,47.387711,19.35533,Hungary
942,Bük,3174.0,47.38486,16.750654,Hungary
943,Cikeruh,85328.0,-6.933056,107.774722,Indonesia
944,Tarub,75740.0,-6.933333,109.166667,Indonesia
945,Enniskerry,1990.0,53.1925,-6.1691667,Ireland
946,Banagher,1586.0,53.1886111,-7.9866667,Ireland
947,Nordiyya,2264.0,32.314696999999995,34.89617,Israel
948,Pardesiyya,6348.0,32.305774,34.909111,Israel
949,Bagnan,8501.0,22.924167,88.14,India
950,Kareli,27811.0,22.916667,79.06666700000001,India
951,Kifri,30241.0,34.6913889,44.9608333,Iraq
952,Tikrit,42616.0,34.5966667,43.6769444,Iraq
953,Hamadan,514134.0,34.799215999999994,48.514556,"Iran, Islamic Republic of"
954,Kamyaran,61647.0,34.7956,46.9355,"Iran, Islamic Republic of"
955,Hellissandur,408.0,64.916667,-23.9,Iceland
956,Ólafsvík,992.0,64.883333,-23.716667,Iceland
957,Loreto,11701.0,43.433333000000005,13.6,Italy
958,Filottrano,9550.0,43.433333000000005,13.35,Italy
959,Albert Town,3449.0,18.2833333,-77.55,Jamaica
960,Port Antonio,14235.0,18.1833333,-76.4666667,Jamaica
961,Judayta,13163.0,32.407920000000004,35.708022,Jordan
962,Balila,5639.0,32.388064,35.935046,Jordan
963,Sakaiminato,36324.0,35.55,133.23333300000002,Japan
964,Machida,399971.0,35.540278,139.45083300000002,Japan
965,Oyugis,10116.0,-0.5,34.716666700000005,Kenya
966,Homa Bay,40324.0,-0.5166667,34.45,Kenya
967,Kyzyl-Suu,16927.0,42.3408333,77.9980556,Kyrgyzstan
968,Toktogul,19336.0,41.9033333,72.94555559999999,Kyrgyzstan
969,Phumi Samraong,27858.0,12.45,105.5833333,Cambodia
970,Kampong Chhnang,75304.0,12.25,104.6666667,Cambodia
971,Binoinano,369.0,0.4166667,173.91666669999998,Kiribati
972,Temaraia,2631.0,-0.6666667,174.45,Kiribati
973,Mutsamudu,23593.0,-12.1627778,44.3963889,Comoros
974,Middle Island,887.0,17.3166667,-62.8166667,Saint Kitts and Nevis
975,Basseterre,12920.0,17.3,-62.716666700000005,Saint Kitts and Nevis
976,Kurchum,8800.0,48.572222,83.654167,Kazakhstan
977,Inderborskiy,13254.0,48.55,51.783333,Kazakhstan
978,Ban Nahin,3465.0,18.233333,104.216667,Lao People's Democratic Republic
979,Vientiane,196644.0,17.966667,102.6,Lao People's Democratic Republic
980,Riyaq,18878.0,33.85,36.0,Lebanon
981,Jubb Jannin,7088.0,33.6269444,35.783333299999995,Lebanon
982,Canaries,710.0,13.9,-61.0666667,Saint Lucia
983,Soufrière,2878.0,13.85,-61.05,Saint Lucia
984,Planken,377.0,47.1833333,9.5333333,Liechtenstein
985,Schaan,5748.0,47.1666667,9.5,Liechtenstein
986,Ragama,34313.0,7.0308333,79.91666670000001,Sri Lanka
987,Wattala,30730.0,6.989722200000001,79.8933333,Sri Lanka
988,Bensonville,32970.0,6.4461111,-10.6125,Liberia
989,Monrovia,935427.0,6.3105556,-10.8047222,Liberia
990,Maseru,194387.0,-29.316666700000003,27.4833333,Lesotho
991,Thaba-Tseka,4843.0,-29.5333333,28.6,Lesotho
992,Ignalina,6422.0,55.35,26.1666667,Lithuania
993,Dotnuva,783.0,55.35,23.9,Lithuania
994,Rippweiler,153.0,49.7516667,5.9575,Luxembourg
995,Buschdorf,387.0,49.7508333,6.008333299999999,Luxembourg
996,Balozi,3854.0,56.8477778,24.0438889,Latvia
997,Ikskile,3368.0,56.8333333,24.5,Latvia
998,Nalut,66228.0,31.8683333,10.9827778,Libya
999,Bardiyah,9149.0,31.7666667,25.1,Libya
1000,Fez,1160239.0,34.037151,-4.999797,Morocco
1001,Rabat,1894386.0,34.013784,-6.844268,Morocco
1002,Dubasari,16180.0,47.263056,29.160833,"Moldova, Republic of"
1003,Calarasi,17125.0,47.254444,28.308056,"Moldova, Republic of"
1004,Miandrivazo,20631.0,-19.5166667,45.466666700000005,Madagascar
1005,Antanifotsy,70625.0,-19.5833333,47.5666667,Madagascar
1006,Rostusa,9147.0,41.61,20.6,North Macedonia
1007,Zajas,12219.0,41.6072222,20.9383333,North Macedonia
1008,Bafoulabé,26866.0,13.8,-10.8333333,Mali
1009,Markala,53746.0,13.6833333,-6.0833333,Mali
1010,Myanaung,42252.0,18.2833333,95.3166667,Myanmar
1011,Nyaunglebin,89638.0,17.95,96.7333333,Myanmar
1012,Ulaanbaatar,844786.0,47.9166667,106.9166667,Mongolia
1013,Öndörhaan,14724.0,47.3166667,110.65,Mongolia
1014,Le François,19683.0,14.6,-60.9,Martinique
1015,Le Lamentin,39230.0,14.6,-61.0,Martinique
1016,Nouakchott,709835.0,18.0863889,-15.975277800000002,Mauritania
1017,Attard,9510.0,35.889722,14.4425,Malta
1018,Kalkara,2982.0,35.889167,14.532778,Malta
1019,Saint Julien,3188.0,-20.2263889,57.6363889,Mauritius
1020,Verdun,2208.0,-20.228333300000003,57.5438889,Mauritius
1021,Mahibadhoo,2155.0,3.7833333,72.9666667,Maldives
1022,Felidhoo,541.0,3.4833333,73.5333333,Maldives
1023,Dedza,15611.0,-14.366666699999998,34.3333333,Malawi
1024,Mangochi,40295.0,-14.4666667,35.2666667,Malawi
1025,Teoloyucan,61379.0,19.745556,-99.183333,Mexico
1026,Nextlalpan,12598.0,19.744167,-99.073333,Mexico
1027,Tanjong Malim,18184.0,3.681,101.5198,Malaysia
1028,Sungai Besar,26939.0,3.6746,100.9867,Malaysia
1029,Chimoio,256992.0,-19.1163889,33.4833333,Mozambique
1030,Dondo,78648.0,-19.6094444,34.743055600000005,Mozambique
1031,Okahandja,20881.0,-21.9833333,16.9166667,Namibia
1032,Usakos,9194.0,-22.0,15.6,Namibia
1033,Canala,2857.0,-21.5333333,165.95,New Caledonia
1034,Tadine,8261.0,-21.55,167.8833333,New Caledonia
1035,Mayahi,22185.0,13.957777800000002,7.6683333,Niger
1036,Zinder,191440.0,13.8,8.983333300000002,Niger
1037,Eruwa,71027.0,7.533333,3.416667,Nigeria
1038,Ikare,182779.0,7.516667,5.75,Nigeria
1039,La Paz Centro,20995.0,12.34,-86.67527779999999,Nicaragua
1040,Nagarote,35438.0,12.2675,-86.56527779999999,Nicaragua
1041,Bleiswijk,10792.0,52.012887,4.527929,Netherlands
1042,Zelhem,11039.0,52.006954,6.348991000000001,Netherlands
1043,Elverum,12585.0,60.88333299999999,11.566667,Norway
1044,Brumunddal,8385.0,60.88333299999999,10.933333,Norway
1045,Banepa,17154.0,27.6333333,85.5166667,Nepal
1046,Siddharthanagar,63372.0,27.5,83.45,Nepal
1047,Alofi,624.0,-19.0166667,-169.91666669999998,Niue
1048,Liku,71.0,-19.0333333,-169.7833333,Niue
1049,Otane,566.0,-39.883333,176.633333,New Zealand
1050,Hunterville,520.0,-39.933333000000005,175.566667,New Zealand
1051,Nizwá,86619.0,22.9333333,57.5333333,Oman
1052,Ibra,21389.0,22.6902778,58.5469444,Oman
1053,Las Colinas,1447.0,8.55,-80.08333329999999,Panama
1054,Caimito,906.0,8.55,-82.4333333,Panama
1055,San Miguel de Cauri,5350.0,-10.1,-76.58333329999999,Peru
1056,Ambo,6896.0,-10.1308333,-76.2047222,Peru
1057,Hitiaa,1826.0,-17.6,-149.3,French Polynesia
1058,Punaauia,25751.0,-17.6333333,-149.6,French Polynesia
1059,Mendi,26251.0,-6.15,143.65,Papua New Guinea
1060,Kieta,3611.0,-6.2166667,155.6333333,Papua New Guinea
1061,Granada,2269.0,11.633333,123.35,Philippines
1062,Calbiga,2920.0,11.624722,125.016389,Philippines
1063,Ziarat,733.0,30.343651,67.741324,Pakistan
1064,Pakpattan,126743.0,30.341044,73.38664200000001,Pakistan
1065,Wschowa,14458.0,51.805426,16.317381,Poland
1066,Nowa Sol,40354.0,51.803937,15.715998,Poland
1067,Alcains,5029.0,39.916415,-7.456550999999999,Portugal
1068,Monte Redondo,4463.0,39.899297,-8.831712,Portugal
1069,Ngetkip,62.0,7.3619444,134.5122222,Palau
1070,Airai,960.0,7.3575,134.55777780000005,Palau
1071,Nueva Italia,2841.0,-25.616667,-57.5,Paraguay
1072,Natalicio Talavera,1809.0,-25.633333,-56.3,Paraguay
1073,Sainte-Rose,7036.0,-21.1,55.7833333,Réunion
1074,Les Trois-Bassins,7114.0,-21.1,55.3,Réunion
1075,Valea Mare,1156.0,45.766667,26.0,Romania
1076,Bod,3839.0,45.766667,25.65,Romania
1077,Lesnica,4715.0,44.6525,19.31,Serbia
1078,Baric,6837.0,44.652222,20.259444,Serbia
1079,Chuchkovo,4404.0,54.269309,41.446478000000006,Russian Federation
1080,Lepley,3074.0,54.2684,42.8888,Russian Federation
1081,Gitarama,87613.0,-2.0744444,29.7566667,Rwanda
1082,Kibungo,46235.0,-2.1644444,30.541944399999995,Rwanda
1083,Umm Lajj,31468.0,25.021264,37.268502000000005,Saudi Arabia
1084,Riyadh,3469290.0,24.653664000000003,46.71522,Saudi Arabia
1085,Tulagi,1472.0,-9.1,160.15,Solomon Islands
1086,Honiara,56312.0,-9.4333333,159.95,Solomon Islands
1087,Umm Ruwabah,55742.0,12.9,31.2166667,Sudan
1088,Galgani,9472.0,12.45,34.1833333,Sudan
1089,Finspång,11989.0,58.716667,15.783333,Sweden
1090,Mariestad,14891.0,58.7,13.816667,Sweden
1091,Lasko,3389.0,46.1519444,15.2363889,Slovenia
1092,Hrastnik,5800.0,46.146111100000006,15.0813889,Slovenia
1093,Kosice,236563.0,48.716666700000005,21.25,Slovakia
1094,Nováky,4402.0,48.716666700000005,18.55,Slovakia
1095,Kailahun,12195.0,8.2833333,-10.5666667,Sierra Leone
1096,Buedu,4686.0,8.280277799999999,-10.3719444,Sierra Leone
1097,Diourbel,126400.0,14.6666667,-16.25,Senegal
1098,Gossas,10244.0,14.5,-16.0666667,Senegal
1099,Wajid,6666.0,3.8,43.25,Somalia
1100,Mahadday Weyne,8273.0,2.9666667,45.5333333,Somalia
1101,Groningen,3112.0,5.8,-55.466666700000005,Suriname
1102,Wageningen,4229.0,5.7666667,-56.6833333,Suriname
1103,Sesori,1390.0,13.7166667,-88.3666667,El Salvador
1104,Cojutepeque,48414.0,13.7166667,-88.9333333,El Salvador
1105,Safita,20394.0,34.8166667,36.1166667,Syrian Arab Republic
1106,Abu Kamal,62491.0,34.45,40.91861110000001,Syrian Arab Republic
1107,Malkerns,9726.0,-26.566666700000003,31.1833333,Eswatini
1108,Sidvokodvo,1747.0,-26.616666700000003,31.45,Eswatini
1109,Bousso,13555.0,10.4825,16.7161111,Chad
1110,Bongor,27770.0,10.2805556,15.372222199999998,Chad
1111,Sotouboua,19742.0,8.566666699999999,0.9833333,Togo
1112,Badou,22182.0,7.5833333,0.6,Togo
1113,Chok Chai,23337.0,14.728444,102.165239,Thailand
1114,Phra Phutthabat,57008.0,14.725264,100.79536,Thailand
1115,Takob,2565.0,38.841111100000006,68.9302778,Tajikistan
1116,Rogun,7732.0,38.7811111,69.8719444,Tajikistan
1117,Türkmenabat,234828.0,39.1013889,63.575,Turkmenistan
1118,Saýat,17761.0,38.7811111,63.8866667,Turkmenistan
1119,Silyanah,26965.0,36.084966,9.370818,Tunisia
1120,Harqalah,6942.0,36.030273,10.509044,Tunisia
1121,Kütahya,185104.0,39.424167,29.983333,Turkey
1122,Kaman,28619.0,39.3575,33.723889,Turkey
1123,Tabaquite,3314.0,10.383333300000002,-61.3,Trinidad and Tobago
1124,Rio Claro,2808.0,10.3,-61.1833333,Trinidad and Tobago
1125,Homei,88185.0,24.1122222,120.4977778,"Taiwan, Province of China"
1126,Tali,190564.0,24.1,120.6666667,"Taiwan, Province of China"
1127,Magomeni,8944.0,-5.2333333,38.1166667,"Tanzania, United Republic of"
1128,Chake Chake,21687.0,-5.25,39.7666667,"Tanzania, United Republic of"
1129,Poroshkovo,3645.0,48.668316,22.753276,Ukraine
1130,Teplyk,6604.0,48.665658,29.745035,Ukraine
1131,Namasuba,22507.0,0.6894444000000001,32.4213889,Uganda
1132,Tororo,47729.0,0.6847222,34.1811111,Uganda
1133,Reisterstown,24447.0,39.46944439999999,-76.8297222,United States
1134,Terre Haute,57063.0,39.466666700000005,-87.4138889,United States
1135,Florida,34002.0,-34.095555600000004,-56.2141667,Uruguay
1136,Nueva Helvecia,10305.0,-34.3166667,-57.216666700000005,Uruguay
1137,Gagarin,24856.0,40.6619444,68.17222220000001,Uzbekistan
1138,Andijon,318439.0,40.654166700000005,72.3575,Uzbekistan
1139,Layou,1609.0,13.2,-61.2666667,Saint Vincent and the Grenadines
1140,Kingstown,17995.0,13.133333300000002,-61.216666700000005,Saint Vincent and the Grenadines
1141,Nirgua,30188.0,10.155,-68.5630556,"Venezuela, Bolivarian Republic of"
1142,Lagunillas,44257.0,10.1408333,-71.26138890000001,"Venezuela, Bolivarian Republic of"
1143,Da Nang,472255.0,16.067778,108.220833,Viet Nam
1144,Hoi An,32757.0,15.879444,108.335,Viet Nam
1145,Lakatoro,705.0,-16.1166667,167.41666669999998,Vanuatu
1146,Gahi,280.0,-13.3333333,-176.15,Wallis and Futuna
1147,Kolopopo,171.0,-13.35,-176.16666669999998,Wallis and Futuna
1148,Vaigaga,760.0,-13.8166667,-171.8,Samoa
1149,Fasitoouta,2098.0,-13.8166667,-171.91666669999998,Samoa
1150,Ibb,234992.0,13.9666667,44.1833333,Yemen
1151,Jiblah,9627.0,13.9166667,44.15,Yemen
1152,Tsingoni,7603.0,-12.7872222,45.1027778,Mayotte
1153,Chiconi,7205.0,-12.8333333,45.110555600000005,Mayotte
1154,Ventersburg,10698.0,-28.085614,27.138143,South Africa
1155,Virginia,122542.0,-28.10391,26.86593,South Africa
1156,Kabompo,6592.0,-13.6,24.2,Zambia
1157,Mkushi,12308.0,-13.616666699999998,29.4,Zambia
1158,Rusape,23761.0,-18.5333333,32.1166667,Zimbabwe
1159,Kwekwe,116332.0,-18.9166667,29.816666700000003,Zimbabwe
